# 
# Header Description:
# 
# Version: v2.0.0.1 Platform: 9 Manufacturer: Xiaomi Model: MI 8
# 
# Raw,ElapsedRealtimeMillis,TimeNanos,LeapSecond,TimeUncertaintyNanos,FullBiasNanos,BiasNanos,BiasUncertaintyNanos,DriftNanosPerSecond,DriftUncertaintyNanosPerSecond,HardwareClockDiscontinuityCount,Svid,TimeOffsetNanos,State,ReceivedSvTimeNanos,ReceivedSvTimeUncertaintyNanos,Cn0DbHz,PseudorangeRateMetersPerSecond,PseudorangeRateUncertaintyMetersPerSecond,AccumulatedDeltaRangeState,AccumulatedDeltaRangeMeters,AccumulatedDeltaRangeUncertaintyMeters,CarrierFrequencyHz,CarrierCycles,CarrierPhase,CarrierPhaseUncertainty,MultipathIndicator,SnrInDb,ConstellationType,AgcDb,CarrierFrequencyHz
# 
# Fix,Provider,Latitude,Longitude,Altitude,Speed,Accuracy,(UTC)TimeInMs
# 
# Nav,Svid,Type,Status,MessageId,Sub-messageId,Data(Bytes)
# 
Raw,347399,3108000000,,,-1265453411676740538,0.0,397386.60284283495,,,0,13,0.0,17,564975,30,28.60870361328125,-38.33789108879633,0.006358933169394732,17,-92.82645207276694,0.0983263029838798,1.57542003E9,,,,1,,1,48.85938262939453,1.57542003E9
Raw,347401,3108000000,,,-1265453411676740538,0.0,397386.60284283495,,,0,15,0.0,17,253377,20,33.716556549072266,-357.1436065021026,0.0037460008170455694,17,-868.8555221016152,0.09701983680770522,1.57542003E9,,,,0,,1,48.85938262939453,1.57542003E9
Raw,347402,3108000000,,,-1265453411676740538,0.0,397386.60284283495,,,0,28,0.0,17,137909,16,36.00804901123047,111.58150882054463,0.0028773541562259197,17,420.63726017149895,0.0965855134772954,1.57542003E9,,,,0,,1,48.85938262939453,1.57542003E9
Raw,347403,3108000000,,,-1265453411676740538,0.0,397386.60284283495,,,0,30,0.0,17,34914,14,38.10066223144531,504.04244056658763,0.0022613229230046272,17,1220.1507297603157,0.09627749786068475,1.57542003E9,,,,0,,1,48.85938262939453,1.57542003E9
Raw,347404,3108000000,,,-1265453411676740538,0.0,397386.60284283495,,,0,12,0.0,17,787251,34,35.721107482910156,939.2609259799917,0.0029256795533001423,19,2919.2229579458144,0.0014628397766500711,1.60143744E9,,,,0,,3,63.903690338134766,1.60143744E9
Raw,347405,3108000000,,,-1265453411676740538,0.0,397386.60284283495,,,0,10,0.0,17,643562,16,27.511411666870117,182.62281685896835,0.7139480493664876,22,959.0061242688238,3.4028234663852886E38,1.56109798E9,,,,1,,5,61.77432632446289,1.56109798E9
Raw,347407,3108000000,,,-1265453411676740538,0.0,397386.60284283495,,,0,21,0.0,17,384775,15,28.310121536254883,244.4399536466813,0.006641703192144632,19,759.7193759338854,0.09934059475121056,1.56109798E9,,,,1,,5,61.77432632446289,1.56109798E9
Raw,348398,4108000000,,,-1265453411676740415,0.0,397392.602842835,,,0,13,0.0,17,565103,31,28.25967025756836,-37.9497215069164,0.006619663443416357,17,-130.77617357968333,0.09845666812089061,1.57542003E9,,,,1,,1,48.692569732666016,1.57542003E9
Raw,348400,4108000000,,,-1265453411676740415,0.0,397392.602842835,,,0,15,0.0,17,254564,20,33.923675537109375,-356.7886550773994,0.0036577321588993073,17,-1225.6441771790146,0.09697570247863209,1.57542003E9,,,,0,,1,48.692569732666016,1.57542003E9
Raw,348401,4108000000,,,-1265453411676740415,0.0,397392.602842835,,,0,28,0.0,17,137544,16,36.30525588989258,111.99155372957978,0.0027805643621832132,17,532.6288139010787,0.09653711858027404,1.57542003E9,,,,0,,1,48.692569732666016,1.57542003E9
Raw,348403,4108000000,,,-1265453411676740415,0.0,397392.602842835,,,0,30,0.0,17,33229,13,38.58137512207031,504.37290112080746,0.0021395720541477203,17,1724.5236308811232,0.0962166224262563,1.57542003E9,,,,0,,1,48.692569732666016,1.57542003E9
Raw,348404,4108000000,,,-1265453411676740415,0.0,397392.602842835,,,0,12,0.0,17,785406,34,35.96415710449219,552.0638872246436,0.0028449471574276686,17,3471.286845170458,0.0014224735787138343,1.60143744E9,,,,0,,3,61.25043487548828,1.60143744E9
Raw,348405,4108000000,,,-1265453411676740415,0.0,397392.602842835,,,0,10,0.0,17,642947,16,27.486711502075195,183.9493571905209,0.7150586581645864,20,1142.8358409801413,3.4028234663852886E38,1.56109798E9,,,,0,,5,61.96491241455078,1.56109798E9
Raw,348406,4108000000,,,-1265453411676740415,0.0,397392.602842835,,,0,21,0.0,17,384290,16,27.91263198852539,146.0779707220554,0.0069527095183730125,17,905.7973466559408,0.09949609791432475,1.56109798E9,,,,0,,5,61.96491241455078,1.56109798E9
Nav,12,769,1,-1,14,116,-57,-114,-53,104,-43,-103,-77,-75,117,112
Raw,349369,5108000000,,,-1265453411676740290,0.0,397398.60284283495,,,0,13,0.0,51,17565217,30,28.66416358947754,-37.68679562834248,0.006318459287285805,17,-168.4629692080258,0.09830606604282534,1.57542003E9,,,,0,,1,48.976600646972656,1.57542003E9
Raw,349370,5108000000,,,-1265453411676740290,0.0,397398.60284283495,,,0,15,0.0,51,14255745,19,34.04488754272461,-356.49643985799634,0.0036070430651307106,17,-1582.140617037011,0.09695035793174779,1.57542003E9,,,,0,,1,48.976600646972656,1.57542003E9
Raw,349370,5108000000,,,-1265453411676740290,0.0,397398.60284283495,,,0,28,0.0,51,15137169,16,36.024993896484375,112.31316063273846,0.002871745964512229,17,644.9419745338172,0.09658270938143855,1.57542003E9,,,,0,,1,48.976600646972656,1.57542003E9
Raw,349371,5108000000,,,-1265453411676740290,0.0,397398.60284283495,,,0,30,0.0,51,11031545,14,38.37234878540039,504.62093229437096,0.0021916853729635477,17,2229.144563175494,0.09624267908566421,1.57542003E9,,,,0,,1,48.976600646972656,1.57542003E9
Raw,349371,5108000000,,,-1265453411676740290,0.0,397398.60284283495,,,0,12,0.0,65,716783552,33,36.16157531738281,552.3489090033572,0.0027810151223093276,17,4023.6357541738153,0.0013905075611546636,1.60143744E9,,,,0,,3,61.584014892578125,1.60143744E9
Raw,349372,5108000000,,,-1265453411676740290,0.0,397398.60284283495,,,0,10,0.0,17,642327,16,27.528398513793945,184.0419985763367,0.007267176639288664,17,1326.877839556478,0.09965333147478257,1.56109798E9,,,,0,,5,61.848121643066406,1.56109798E9
Raw,349372,5108000000,,,-1265453411676740290,0.0,397398.60284283495,,,0,21,0.0,17,383823,17,27.30695152282715,146.38262704380668,0.007454834412783384,17,1052.1799736997475,0.09974716036152993,1.56109798E9,,,,0,,5,61.848121643066406,1.56109798E9
Nav,12,769,1,-1,15,122,-20,-64,90,-118,-73,21,-28,-95,-31,-8
Raw,350359,6108000000,,,-1265453411676740169,0.0,397404.602842835,,,0,5,0.0,16,9376309,1000000000,19.582130432128906,647.3531814257385,2.99792458E8,22,3382.581051879177,3.4028234663852886E38,1.57542003E9,,,,0,,1,52.855796813964844,1.57542003E9
Raw,350360,6108000000,,,-1265453411676740169,0.0,397404.602842835,,,0,13,0.0,51,17565345,30,28.895675659179688,-37.540536321208634,0.0061522736214101315,17,-206.00350552923445,0.0982229732098875,1.57542003E9,,,,0,,1,52.855796813964844,1.57542003E9
Raw,350361,6108000000,,,-1265453411676740169,0.0,397404.602842835,,,0,15,0.0,51,14256943,19,34.09840393066406,-356.386373477455,0.0035848875995725393,17,-1938.526990514466,0.0969392801989687,1.57542003E9,,,,0,,1,52.855796813964844,1.57542003E9
Raw,350361,6108000000,,,-1265453411676740169,0.0,397404.602842835,,,0,24,0.0,17,93947,57,20.850494384765625,-577.0611822685291,1.011764215664189,22,-3030.207622459817,3.4028234663852886E38,1.57542003E9,,,,0,,1,52.855796813964844,1.57542003E9
Raw,350362,6108000000,,,-1265453411676740169,0.0,397404.602842835,,,0,28,0.0,51,15136799,16,36.4552001953125,112.45671375261009,0.0027329756412655115,17,757.3986882864273,0.09651332421981519,1.57542003E9,,,,0,,1,52.855796813964844,1.57542003E9
Raw,350362,6108000000,,,-1265453411676740169,0.0,397404.602842835,,,0,30,0.0,51,11029864,13,38.51497268676758,504.69189663248835,0.002155991969630122,17,2733.8364598079825,0.0962248323839975,1.57542003E9,,,,0,,1,52.855796813964844,1.57542003E9
Raw,350362,6108000000,,,-1265453411676740169,0.0,397404.602842835,,,0,30,0.0,16,11029880,1000000000,7.290836334228516,502.1997481653066,2.99792458E8,22,60140.004245143165,3.4028234663852886E38,1.17645005E9,,,,0,,1,11.110957145690918,1.17645005E9
Raw,350363,6108000000,,,-1265453411676740169,0.0,397404.602842835,,,0,12,0.0,65,1716781729,33,36.439117431640625,552.4488109464301,0.002693556947633624,17,4576.084565120245,0.001346778473816812,1.60143744E9,,,,0,,3,63.976463317871094,1.60143744E9
Raw,350364,6108000000,,,-1265453411676740169,0.0,397404.602842835,,,0,10,0.0,17,641713,15,28.19586181640625,184.08805140019535,0.006729649845510721,17,1510.9658909566733,0.0993845680778936,1.56109798E9,,,,0,,5,61.96491241455078,1.56109798E9
Raw,350364,6108000000,,,-1265453411676740169,0.0,397404.602842835,,,0,21,0.0,17,383324,16,27.603824615478516,146.51799718450707,0.007204343564808369,17,1198.6979708842546,0.09962191493754242,1.56109798E9,,,,0,,5,61.96491241455078,1.56109798E9
Raw,351361,7108000000,,,-1265453411676740041,0.0,397410.60284283495,,,0,5,0.0,17,374117,74,17.59844207763672,648.8819159306126,1.1589551620801606,20,4033.280057119122,3.4028234663852886E38,1.57542003E9,,,,0,,1,48.976600646972656,1.57542003E9
Raw,351361,7108000000,,,-1265453411676740041,0.0,397410.60284283495,,,0,13,0.0,51,17565466,28,29.55335235595703,-37.48391457282236,0.0057036373764276505,17,-243.4874201020568,0.0028518186882138252,1.57542003E9,,,,0,,1,48.976600646972656,1.57542003E9
Raw,351361,7108000000,,,-1265453411676740041,0.0,397410.60284283495,,,0,15,0.0,51,14258123,21,33.35776138305664,-356.40830349315047,0.0039039808325469494,17,-2294.9352940076164,0.0019519904162734747,1.57542003E9,,,,0,,1,48.976600646972656,1.57542003E9
Raw,351362,7108000000,,,-1265453411676740041,0.0,397410.60284283495,,,0,24,0.0,17,95907,69,18.607954025268555,-576.4148425630306,1.112609145400545,20,-3606.8344158456853,3.4028234663852886E38,1.57542003E9,,,,0,,1,48.976600646972656,1.57542003E9
Raw,351362,7108000000,,,-1265453411676740041,0.0,397410.60284283495,,,0,28,0.0,51,15136419,18,34.63495635986328,112.5608004154144,0.00337013928219676,17,869.9594887018417,0.00168506964109838,1.57542003E9,,,,0,,1,48.976600646972656,1.57542003E9
Raw,351363,7108000000,,,-1265453411676740041,0.0,397410.60284283495,,,0,30,0.0,51,11028187,14,38.24195861816406,504.6212142770896,0.0022248348686844115,17,3238.457674085072,0.0011124174343422055,1.57542003E9,,,,0,,1,48.976600646972656,1.57542003E9
Raw,351363,7108000000,,,-1265453411676740041,0.0,397410.60284283495,,,0,30,0.0,17,28107,94,22.764835357666016,504.70422931797225,0.9269257921107412,20,60641.97503579149,3.4028234663852886E38,1.17645005E9,,,,0,,1,20.161352157592773,1.17645005E9
Raw,351364,7108000000,,,-1265453411676740041,0.0,397410.60284283495,,,0,12,0.0,99,716779880,33,36.39957046508789,552.4998023409271,0.0027058494742959738,17,5128.584367461172,0.0013529247371479869,1.60143744E9,,,,0,,3,61.40491485595703,1.60143744E9
Raw,351364,7108000000,,,-1265453411676740041,0.0,397410.60284283495,,,0,3,0.0,17,49485,48,31.548206329345703,-179.46768457005396,0.5335701762863021,22,-416.2126322916912,3.4028234663852886E38,1.60481254E9,,,,0,,3,61.40491485595703,1.60481254E9
Raw,351364,7108000000,,,-1265453411676740041,0.0,397410.60284283495,,,0,10,0.0,17,641107,16,27.928112030029297,184.09775262690755,0.006940328981727362,17,1695.0636435835809,0.09948990764600192,1.56109798E9,,,,0,,5,61.96491241455078,1.56109798E9
Raw,351365,7108000000,,,-1265453411676740041,0.0,397410.60284283495,,,0,21,0.0,17,382830,15,28.651540756225586,146.6067486769084,0.00638570124283433,17,1345.304719561163,0.0992125937765554,1.56109798E9,,,,0,,5,61.96491241455078,1.56109798E9
Nav,13,257,1,-1,3,-53,-83,-64,-34,-53,-83,-64,-34,63,-16,72,-13,63,-87,7,81,63,-2,9,-21,27,-18,20,126,4,-96,75,-44,12,6,-80,-33,63,-22,103,-46,12,68,124,20
Nav,15,257,1,-1,3,-53,-83,-64,-34,-53,-83,-64,-34,63,-29,-122,-78,45,64,-125,-22,0,14,73,82,52,-27,-10,-12,3,109,8,-54,10,-28,89,-98,63,-23,6,-37,2,65,-78,-9
Nav,28,257,1,-1,3,-53,-83,-64,-34,-53,-83,-64,-34,0,23,93,-20,61,-35,-96,-62,63,-1,-119,-54,57,52,79,-92,6,55,-79,-119,18,-44,-81,47,63,-21,-111,-45,21,-8,-67,123
Nav,30,257,1,-1,3,-53,-83,-64,-34,-53,-83,-64,-34,0,8,-46,-14,1,-56,-125,105,63,-2,-55,-87,15,-87,24,124,8,-54,98,30,32,11,54,-23,63,-24,66,98,14,65,-108,19
Nav,12,769,1,1,1,8,55,37,90,124,8,70,-102,-101,95,-8
Raw,352413,8108000000,,,-1265453411676840616,0.0,41.288424599825966,,,0,5,0.0,16393,211819709371934,70,18.35849380493164,647.4049867596532,1.124776049840805,20,4681.726370005178,3.4028234663852886E38,1.57542003E9,,,,0,,1,48.812049865722656,1.57542003E9
Raw,352413,8108000000,,,-1265453411676840616,0.0,41.288424599825966,,,0,13,0.0,16431,211819717565599,29,29.31801986694336,-37.36538483899457,0.0058602807112038136,17,-280.8528049410514,0.0029301403556019068,1.57542003E9,,,,0,,1,48.812049865722656,1.57542003E9
Raw,352414,8108000000,,,-1265453411676840616,0.0,41.288424599825966,,,0,15,0.0,16431,211819714259307,19,34.333274841308594,-356.22445807322765,0.0034892491530627012,17,-2651.159752080844,0.0017446245765313506,1.57542003E9,,,,0,,1,48.812049865722656,1.57542003E9
Raw,352414,8108000000,,,-1265453411676840616,0.0,41.288424599825966,,,0,24,0.0,16393,211819704097793,70,18.303680419921875,-576.0714277311067,1.126292186617687,20,-4181.820738852985,3.4028234663852886E38,1.57542003E9,,,,0,,1,48.812049865722656,1.57542003E9
Raw,352414,8108000000,,,-1265453411676840616,0.0,41.288424599825966,,,0,28,0.0,16431,211819715136038,18,35.179195404052734,112.71214797116795,0.003165453439578414,17,982.6716366730096,0.001582726719789207,1.57542003E9,,,,0,,1,48.812049865722656,1.57542003E9
Raw,352415,8108000000,,,-1265453411676840616,0.0,41.288424599825966,,,0,30,0.0,16431,211819711026492,14,37.64983367919922,504.786118487581,0.0023817929904907937,17,3743.243792572653,0.001190896495245397,1.57542003E9,,,,0,,1,48.812049865722656,1.57542003E9
Raw,352415,8108000000,,,-1265453411676840616,0.0,41.288424599825966,,,0,30,0.0,16393,211819711026481,17,27.02029800415039,505.5806596874563,0.7355621181568663,20,61146.08897138685,3.4028234663852886E38,1.17645005E9,,,,0,,1,10.88136100769043,1.17645005E9
Raw,352416,8108000000,,,-1265453411676840616,0.0,41.288424599825966,,,0,12,0.0,32995,49801716778033,35,35.6076774597168,552.5996253585681,0.0029641366563737392,17,5681.1839928197405,0.0014820683281868696,1.60143744E9,,,,0,,3,61.51556396484375,1.60143744E9
Raw,352416,8108000000,,,-1265453411676840616,0.0,41.288424599825966,,,0,3,0.0,16393,50054,45,32.29197311401367,-179.38816581292394,0.004085007589310408,17,-595.6007981046151,0.002042503794655204,1.60481254E9,,,,0,,3,61.51556396484375,1.60481254E9
Raw,352416,8108000000,,,-1265453411676840616,0.0,41.288424599825966,,,0,4,0.0,16393,993894,76,25.951805114746094,-336.8718890522504,0.008473231457173824,19,-2731.357276435647,0.004236615728586912,1.60537498E9,,,,0,,3,61.51556396484375,1.60537498E9
Raw,352417,8108000000,,,-1265453411676840616,0.0,41.288424599825966,,,0,10,0.0,16393,211805653640493,16,27.8763370513916,184.11172414998964,0.006981822196394205,17,1879.1753677335705,0.09951065425333534,1.56109798E9,,,,0,,5,62.222076416015625,1.56109798E9
Raw,352417,8108000000,,,-1265453411676840616,0.0,41.288424599825966,,,0,21,0.0,16393,211805711382350,16,28.063888549804688,146.9227047022158,0.6886970762555547,20,1492.0631419725057,3.4028234663852886E38,1.56109798E9,,,,0,,5,62.222076416015625,1.56109798E9
Raw,353401,9108000000,,,-1265453411676840502,0.0,36.70993151980001,,,0,5,0.0,16393,211820709369767,83,16.257972717285156,647.1965384555597,1.219233714209433,20,5328.611586007002,3.4028234663852886E38,1.57542003E9,,,,0,,1,52.750877380371094,1.57542003E9
Raw,353401,9108000000,,,-1265453411676840502,0.0,36.70993151980001,,,0,13,0.0,16431,211820717565710,25,30.767566680908203,-37.15485810742911,0.004959536716341972,17,-318.0076630484805,0.002479768358170986,1.57542003E9,,,,0,,1,52.750877380371094,1.57542003E9
Raw,353402,9108000000,,,-1265453411676840502,0.0,36.70993151980001,,,0,15,0.0,16431,211820714260497,20,33.57390213012695,-356.0262932543792,0.0038080322556197648,17,-3007.1860453352233,0.0019040161278098822,1.57542003E9,,,,0,,1,52.750877380371094,1.57542003E9
Raw,353402,9108000000,,,-1265453411676840502,0.0,36.70993151980001,,,0,24,0.0,16393,211820704099772,80,16.682571411132812,-575.4336768046519,1.1991920315626583,20,-4756.502022733885,3.4028234663852886E38,1.57542003E9,,,,0,,1,52.750877380371094,1.57542003E9
Raw,353402,9108000000,,,-1265453411676840502,0.0,36.70993151980001,,,0,28,0.0,16431,211820715135665,18,34.826683044433594,112.93067459167004,0.0032965641003102064,17,1095.6023112646797,0.0016482820501551032,1.57542003E9,,,,0,,1,52.750877380371094,1.57542003E9
Raw,353403,9108000000,,,-1265453411676840502,0.0,36.70993151980001,,,0,30,0.0,16431,211820711024813,15,37.42500305175781,504.94000825709685,0.002444249577820301,17,4248.18380082975,0.0012221247889101505,1.57542003E9,,,,0,,1,52.750877380371094,1.57542003E9
Raw,353403,9108000000,,,-1265453411676840502,0.0,36.70993151980001,,,0,24,0.0,16392,211820704099825,1000000000,7.0,-7723.532355217718,2.99792458E8,22,-72691.33161590848,3.4028234663852886E38,1.17645005E9,,,,1,,1,20.027101516723633,1.17645005E9
Raw,353404,9108000000,,,-1265453411676840502,0.0,36.70993151980001,,,0,30,0.0,16393,211820711024799,13,29.10049057006836,504.921143013089,0.008046700619161129,17,61651.01011439994,0.0040233503095805645,1.17645005E9,,,,0,,1,20.027101516723633,1.17645005E9
Raw,353404,9108000000,,,-1265453411676840502,0.0,36.70993151980001,,,0,12,0.0,32995,49802716776179,34,35.68278884887695,552.7989489397032,0.0029386149253696203,17,6233.982941759444,0.0014693074626848102,1.60143744E9,,,,0,,3,61.47423553466797,1.60143744E9
Raw,353404,9108000000,,,-1265453411676840502,0.0,36.70993151980001,,,0,3,0.0,16393,50630,46,31.995716094970703,-179.12192196524438,0.0042267413809895515,17,-774.7227200698595,0.0021133706904947758,1.60481254E9,,,,0,,3,61.47423553466797,1.60481254E9
Raw,353405,9108000000,,,-1265453411676840502,0.0,36.70993151980001,,,0,4,0.0,16393,996285,66,27.66204261779785,-715.5920967782167,0.006958845071494579,17,-3446.9493732138635,0.0034794225357472897,1.60537498E9,,,,0,,3,61.47423553466797,1.60537498E9
Raw,353405,9108000000,,,-1265453411676840502,0.0,36.70993151980001,,,0,10,0.0,16393,211806653639877,15,28.307796478271484,184.25511922863234,0.006643483880907297,17,2063.430486962203,0.09934148509559189,1.56109798E9,,,,0,,5,62.02272033691406,1.56109798E9
Raw,353405,9108000000,,,-1265453411676840502,0.0,36.70993151980001,,,0,21,0.0,16393,211806711381862,15,28.42061424255371,146.95715845343057,0.006557750049978495,17,1639.0203004259363,0.09929861818012749,1.56109798E9,,,,0,,5,62.02272033691406,1.56109798E9
Nav,12,769,1,1,2,16,-73,0,-51,-31,-88,72,118,107,63,112
Nav,3,769,1,-1,2,16,-73,0,-88,-6,-104,-93,13,37,6,-88
Nav,4,769,1,-1,2,16,-73,0,-63,-55,52,-84,-118,-55,58,-72
Nav,21,1281,1,-1,1,56,-112,19,53,45,96,16,85,5,-64,101,-94,75,-83,-64,-34,75,-83,-64,-34,75,-83,-64,-34,75,-83,-64,-34,75,-83,-64,-34,75,-83,-64,-34,75,-83,-64,-34
Raw,354595,10323000000,,,-1265453411676840348,0.0,33.417929104824175,,,0,5,0.0,16393,211821924367114,81,16.481191635131836,646.7525803768935,1.2118934714050242,20,6114.055811150739,3.4028234663852886E38,1.57542003E9,,,,0,,1,49.046180725097656,1.57542003E9
Raw,354595,10323000000,,,-1265453411676840348,0.0,33.417929104824175,,,0,13,0.0,16431,211821932565856,24,31.607088088989258,-37.02234857009112,0.004502616822719574,17,-362.9898165611412,0.002251308411359787,1.57542003E9,,,,0,,1,49.046180725097656,1.57542003E9
Raw,354595,10323000000,,,-1265453411676840348,0.0,33.417929104824175,,,0,15,0.0,16431,211821929261941,21,33.139766693115234,-355.89447853429346,0.004003200680017471,17,-3439.59783675439,0.0020016003400087357,1.57542003E9,,,,0,,1,49.046180725097656,1.57542003E9
Raw,354595,10323000000,,,-1265453411676840348,0.0,33.417929104824175,,,0,24,0.0,16393,211821919102059,76,17.29683494567871,-578.1524343614765,1.1742677707497995,20,-5456.819091557402,3.4028234663852886E38,1.57542003E9,,,,0,,1,49.046180725097656,1.57542003E9
Raw,354596,10323000000,,,-1265453411676840348,0.0,33.417929104824175,,,0,28,0.0,16431,211821930135222,19,34.59851837158203,113.1008713682677,0.003384307725355029,17,1233.019869977125,0.0016921538626775146,1.57542003E9,,,,0,,1,49.046180725097656,1.57542003E9
Raw,354596,10323000000,,,-1265453411676840348,0.0,33.417929104824175,,,0,30,0.0,16431,211821926022755,15,37.36356735229492,505.01831699269655,0.0024615991860628132,17,4861.781055975876,0.0012307995930314064,1.57542003E9,,,,0,,1,49.046180725097656,1.57542003E9
Raw,354596,10323000000,,,-1265453411676840348,0.0,33.417929104824175,,,0,24,0.0,16392,211821919102118,1000000000,13.354347229003906,-575.3071627260392,2.99792458E8,20,-73361.87940111762,3.4028234663852886E38,1.17645005E9,,,,0,,1,11.260717391967773,1.17645005E9
Raw,354597,10323000000,,,-1265453411676840348,0.0,33.417929104824175,,,0,30,0.0,16393,211821926022748,9,30.229116439819336,505.0231900429336,0.007066209800541401,17,62264.613290302106,0.0035331049002707005,1.17645005E9,,,,0,,1,11.260717391967773,1.17645005E9
Raw,354597,10323000000,,,-1265453411676840348,0.0,33.417929104824175,,,0,12,0.0,32995,49803931773956,34,35.859561920166016,552.9246381347458,0.002879413543269038,17,6905.78637709316,0.001439706771634519,1.60143744E9,,,,0,,3,61.51556396484375,1.60143744E9
Raw,354597,10323000000,,,-1265453411676840348,0.0,33.417929104824175,,,0,3,0.0,16491,1935051359,45,32.43659973144531,-178.92399650088603,0.004017552360892296,17,-992.1153758184361,0.002008776180446148,1.60481254E9,,,,0,,3,61.51556396484375,1.60481254E9
Raw,354597,10323000000,,,-1265453411676840348,0.0,33.417929104824175,,,0,4,0.0,16457,1923999135,67,27.48298454284668,-715.4974449287386,0.007103790063410997,17,-4316.278768802281,0.0035518950317054987,1.60537498E9,,,,0,,3,61.51556396484375,1.60537498E9
Raw,354598,10323000000,,,-1265453411676840348,0.0,33.417929104824175,,,0,10,0.0,16431,211807868639123,16,27.87185287475586,184.31155668186787,0.006985427811741829,17,2287.3690283306723,0.0034927139058709145,1.56109798E9,,,,0,,5,62.037113189697266,1.56109798E9
Raw,354598,10323000000,,,-1265453411676840348,0.0,33.417929104824175,,,0,21,0.0,16431,211807926381260,15,28.756864547729492,147.1345179813562,0.006308737210929394,17,1817.788739773284,0.003154368605464697,1.56109798E9,,,,0,,5,62.037113189697266,1.56109798E9
Raw,355614,11323000000,,,-1265453411676840227,0.0,31.179575634813066,,,0,5,0.0,16393,211822924365080,81,16.489517211914062,647.2959228987802,1.2079212676049673,20,6761.501364685392,3.4028234663852886E38,1.57542003E9,,,,0,,1,48.812049865722656,1.57542003E9
Raw,355614,11323000000,,,-1265453411676840227,0.0,31.179575634813066,,,0,13,0.0,16431,211822932565978,26,30.722326278686523,-36.85678385014455,0.004985435400158167,17,-399.84660041128575,0.0024927177000790834,1.57542003E9,,,,0,,1,48.812049865722656,1.57542003E9
Raw,355614,11323000000,,,-1265453411676840227,0.0,31.179575634813066,,,0,15,0.0,16431,211822929263146,19,34.113338470458984,-355.7644341027085,0.0035787292290478945,17,-3795.3622708570983,0.0017893646145239472,1.57542003E9,,,,0,,1,48.812049865722656,1.57542003E9
Raw,355615,11323000000,,,-1265453411676840227,0.0,31.179575634813066,,,0,24,0.0,16393,211822919103951,90,15.276518821716309,-578.1627272633464,1.2651196177259907,20,-6035.115886061463,3.4028234663852886E38,1.57542003E9,,,,0,,1,48.812049865722656,1.57542003E9
Raw,355615,11323000000,,,-1265453411676840227,0.0,31.179575634813066,,,0,28,0.0,16431,211822930134835,17,35.690773010253906,113.2734874061714,0.0029844006057828665,17,1346.2933573832963,0.0014922003028914332,1.57542003E9,,,,0,,1,48.812049865722656,1.57542003E9
Raw,355616,11323000000,,,-1265453411676840227,0.0,31.179575634813066,,,0,30,0.0,16431,211822926021080,14,37.9973258972168,505.1110724050359,0.0022883866913616657,17,5366.892128380912,0.0011441933456808329,1.57542003E9,,,,0,,1,48.812049865722656,1.57542003E9
Raw,355616,11323000000,,,-1265453411676840227,0.0,31.179575634813066,,,0,24,0.0,16392,211822919104078,1000000000,16.785476684570312,-575.7862938998369,2.99792458E8,20,-73936.57510531467,3.4028234663852886E38,1.17645005E9,,,,0,,1,10.88136100769043,1.17645005E9
Raw,355616,11323000000,,,-1265453411676840227,0.0,31.179575634813066,,,0,30,0.0,16393,211822926021066,9,29.27696418762207,505.1257501994696,0.007884861901402473,17,62769.739040501576,0.003942430950701237,1.17645005E9,,,,0,,1,10.88136100769043,1.17645005E9
Raw,355617,11323000000,,,-1265453411676840227,0.0,31.179575634813066,,,0,12,0.0,32995,49804931772107,33,36.09904479980469,553.0479241948378,0.0028011079411953688,17,7458.834301287998,0.0014005539705976844,1.60143744E9,,,,0,,3,61.34906005859375,1.60143744E9
Raw,355617,11323000000,,,-1265453411676840227,0.0,31.179575634813066,,,0,3,0.0,16491,935051954,45,32.53010177612305,-178.70619518252525,0.0039745355024933815,17,-1170.8215710009613,0.0019872677512466908,1.60481254E9,,,,0,,3,61.34906005859375,1.60481254E9
Raw,355617,11323000000,,,-1265453411676840227,0.0,31.179575634813066,,,0,4,0.0,16457,924001500,62,28.536243438720703,-715.4039946285948,0.006292556878179312,17,-5031.682763430876,0.003146278439089656,1.60537498E9,,,,0,,3,61.34906005859375,1.60537498E9
Raw,355618,11323000000,,,-1265453411676840227,0.0,31.179575634813066,,,0,10,0.0,16431,211808868638520,15,28.45134162902832,184.37211617374942,0.006534592714160681,17,2471.7411445044218,0.0032672963570803404,1.56109798E9,,,,0,,5,61.96491241455078,1.56109798E9
Raw,355618,11323000000,,,-1265453411676840227,0.0,31.179575634813066,,,0,21,0.0,16431,211808926380771,16,28.108890533447266,147.29729748072648,0.00679737376049161,17,1965.0860372540105,0.003398686880245805,1.56109798E9,,,,0,,5,61.96491241455078,1.56109798E9
Nav,12,769,1,1,3,28,2,48,24,-97,53,22,127,-33,92,32
Nav,3,769,1,-1,3,28,0,52,-55,30,108,-44,56,-75,-117,80
Nav,4,769,1,-1,3,28,1,48,-115,25,-84,-107,120,-122,116,-24
Raw,356604,12323000000,,,-1265453411676840104,0.0,29.428693062324587,,,0,5,0.0,16393,211823924362839,78,17.06163787841797,647.7912773218827,1.1821932732373108,20,7409.438463347049,3.4028234663852886E38,1.57542003E9,,,,0,,1,48.59579086303711,1.57542003E9
Raw,356604,12323000000,,,-1265453411676840104,0.0,29.428693062324587,,,0,13,0.0,16431,211823932566100,26,30.599287033081055,-36.686423075214634,0.005056560039520264,17,-436.5330234865004,0.002528280019760132,1.57542003E9,,,,0,,1,48.59579086303711,1.57542003E9
Raw,356605,12323000000,,,-1265453411676840104,0.0,29.428693062324587,,,0,15,0.0,16431,211823929264324,20,33.46284484863281,-355.5749546983179,0.0038570347242057323,17,-4150.937225555416,0.0019285173621028662,1.57542003E9,,,,0,,1,48.59579086303711,1.57542003E9
Raw,356605,12323000000,,,-1265453411676840104,0.0,29.428693062324587,,,0,24,0.0,16393,211823919105867,80,16.700191497802734,-576.2851928984178,1.2010990515127862,20,-6613.3659250396395,3.4028234663852886E38,1.57542003E9,,,,0,,1,48.59579086303711,1.57542003E9
Raw,356605,12323000000,,,-1265453411676840104,0.0,29.428693062324587,,,0,28,0.0,16431,211823930134454,16,36.0528450012207,113.48579905343081,0.002862552646547556,17,1459.7791564367271,0.001431276323273778,1.57542003E9,,,,0,,1,48.59579086303711,1.57542003E9
Raw,356605,12323000000,,,-1265453411676840104,0.0,29.428693062324587,,,0,30,0.0,16431,211823926019391,14,38.336360931396484,505.25198130429453,0.0022007853258401155,17,5872.144109685207,0.0011003926629200578,1.57542003E9,,,,0,,1,48.59579086303711,1.57542003E9
Raw,356606,12323000000,,,-1265453411676840104,0.0,29.428693062324587,,,0,24,0.0,16392,211823919105978,1000000000,17.442401885986328,-575.9918111126694,2.99792458E8,20,-74521.40167549204,3.4028234663852886E38,1.17645005E9,,,,0,,1,11.260717391967773,1.17645005E9
Raw,356606,12323000000,,,-1265453411676840104,0.0,29.428693062324587,,,0,30,0.0,16393,211823926019375,10,29.474166870117188,505.2518058708957,0.0077078621834516525,17,63274.99084637247,0.0038539310917258263,1.17645005E9,,,,0,,1,11.260717391967773,1.17645005E9
Raw,356606,12323000000,,,-1265453411676840104,0.0,29.428693062324587,,,0,13,0.0,16392,49805934945298,1000000000,15.356348037719727,-170.8809504736971,2.99792458E8,22,-1023.565315259061,3.4028234663852886E38,1.60087501E9,,,,0,,3,61.278724670410156,1.60087501E9
Raw,356606,12323000000,,,-1265453411676840104,0.0,29.428693062324587,,,0,12,0.0,32995,49805931770269,33,36.80635070800781,553.2152132141509,0.002582049695774913,17,8012.049514502149,0.0012910248478874564,1.60143744E9,,,,0,,3,61.278724670410156,1.60143744E9
Raw,356606,12323000000,,,-1265453411676840104,0.0,29.428693062324587,,,0,3,0.0,16491,1935052542,45,32.47652053833008,-178.47296624145886,0.003999129869043827,17,-1349.2945372424201,0.0019995649345219135,1.60481254E9,,,,0,,3,61.278724670410156,1.60481254E9
Raw,356607,12323000000,,,-1265453411676840104,0.0,29.428693062324587,,,0,4,0.0,16491,1924003919,62,28.527393341064453,-715.2800549954418,0.006298971828073263,17,-5746.962818426317,0.0031494859140366316,1.60537498E9,,,,0,,3,61.278724670410156,1.60537498E9
Raw,356607,12323000000,,,-1265453411676840104,0.0,29.428693062324587,,,0,10,0.0,16431,211809868637903,15,28.46482276916504,184.48274115824188,0.00652445899322629,17,2656.2238856626636,0.003262229496613145,1.56109798E9,,,,0,,5,61.99386215209961,1.56109798E9
Raw,356607,12323000000,,,-1265453411676840104,0.0,29.428693062324587,,,0,21,0.0,16431,211809926380274,14,29.119001388549805,147.4945377565591,0.006051117554306984,17,2112.5805750105696,0.003025558777153492,1.56109798E9,,,,0,,5,61.99386215209961,1.56109798E9
Nav,13,257,1,11,4,34,-64,44,1,17,61,12,95,30,126,127,-74,60,-125,49,22,13,105,-21,92,39,-57,-15,12,34,14,-78,-119,34,-23,0,-106,1,83,24,-18,54,52,-34,75
Nav,15,257,1,11,4,34,-64,44,1,17,61,12,95,30,126,127,-74,60,-125,49,22,13,105,-21,92,39,-57,-15,12,34,14,-78,-119,34,-23,0,-106,1,83,24,-18,15,-52,28,15
Nav,28,257,1,11,4,34,-64,44,1,17,61,12,95,30,126,127,-74,60,-125,49,22,13,105,-21,92,39,-57,-15,12,34,14,-78,-119,34,-23,0,-106,1,83,24,-18,44,-50,4,43
Nav,30,257,1,11,4,34,-64,44,1,17,61,12,95,30,126,127,-74,60,-125,49,22,13,105,-21,92,39,-57,-15,12,34,14,-78,-119,34,-23,0,-106,1,83,24,-18,3,-3,80,-1
Raw,357630,13323000000,,,-1265453411676839980,0.0,28.05279397614295,,,0,5,0.0,16393,211824924360682,67,18.834674835205078,648.3886746198145,1.1024612936727718,20,8057.837633439174,3.4028234663852886E38,1.57542003E9,,,,0,,1,49.046180725097656,1.57542003E9
Raw,357630,13323000000,,,-1265453411676839980,0.0,28.05279397614295,,,0,13,0.0,16431,211824932566219,27,30.202159881591797,-36.57944047990992,0.00529311690479517,17,-473.1124639664103,0.002646558452397585,1.57542003E9,,,,0,,1,49.046180725097656,1.57542003E9
Raw,357630,13323000000,,,-1265453411676839980,0.0,28.05279397614295,,,0,15,0.0,16431,211824929265503,20,33.59910583496094,-355.48178164582987,0.0037969991099089384,17,-4506.419007201246,0.0018984995549544692,1.57542003E9,,,,0,,1,49.046180725097656,1.57542003E9
Raw,357631,13323000000,,,-1265453411676839980,0.0,28.05279397614295,,,0,24,0.0,16393,211824919107815,94,14.66103458404541,-575.3719193934326,1.2927977676528117,20,-7189.002513081394,3.4028234663852886E38,1.57542003E9,,,,0,,1,49.046180725097656,1.57542003E9
Raw,357631,13323000000,,,-1265453411676839980,0.0,28.05279397614295,,,0,28,0.0,16431,211824930134079,17,35.63926696777344,113.6259451498179,0.0030021499842405324,17,1573.405101586545,0.001501074992120266,1.57542003E9,,,,0,,1,49.046180725097656,1.57542003E9
Raw,357631,13323000000,,,-1265453411676839980,0.0,28.05279397614295,,,0,30,0.0,16431,211824926017713,14,38.102378845214844,505.31247598667323,0.002260876120999456,17,6377.45658567188,0.0011304380604997277,1.57542003E9,,,,0,,1,49.046180725097656,1.57542003E9
Raw,357632,13323000000,,,-1265453411676839980,0.0,28.05279397614295,,,0,24,0.0,16392,211824919107881,1000000000,15.331962585449219,-576.6862070818652,2.99792458E8,20,-75097.76113972286,3.4028234663852886E38,1.17645005E9,,,,0,,1,20.027101516723633,1.17645005E9
Raw,357632,13323000000,,,-1265453411676839980,0.0,28.05279397614295,,,0,30,0.0,16393,211824926017691,9,29.388330459594727,505.31216864105227,0.0077844117768108845,17,63780.303015013524,0.0038922058884054422,1.17645005E9,,,,0,,1,20.027101516723633,1.17645005E9
Raw,357633,13323000000,,,-1265453411676839980,0.0,28.05279397614295,,,0,13,0.0,16393,945946,174,15.68835735321045,-169.86687810354567,1.2458515802153647,20,-1194.3609833422584,3.4028234663852886E38,1.60087501E9,,,,0,,3,61.278724670410156,1.60087501E9
Raw,357633,13323000000,,,-1265453411676839980,0.0,28.05279397614295,,,0,12,0.0,32995,49806931768428,33,36.685096740722656,553.3102234011731,0.00261834729462862,17,8565.359737903322,0.00130917364731431,1.60143744E9,,,,0,,3,61.278724670410156,1.60143744E9
Raw,357633,13323000000,,,-1265453411676839980,0.0,28.05279397614295,,,0,3,0.0,16491,935053126,46,32.18939208984375,-178.29743608811918,0.004133537411689758,17,-1527.5919733305393,0.002066768705844879,1.60481254E9,,,,0,,3,61.278724670410156,1.60481254E9
Raw,357634,13323000000,,,-1265453411676839980,0.0,28.05279397614295,,,0,4,0.0,16491,924006269,60,28.76622772216797,-715.1704534148266,0.6557868698486948,20,-6462.1665235823575,3.4028234663852886E38,1.60537498E9,,,,0,,3,61.278724670410156,1.60537498E9
Raw,357634,13323000000,,,-1265453411676839980,0.0,28.05279397614295,,,0,10,0.0,16431,211810868637281,15,28.262554168701172,184.5196916237628,0.006678177509456873,17,2840.7435772864264,0.0033390887547284365,1.56109798E9,,,,0,,5,61.833412170410156,1.56109798E9
Raw,357635,13323000000,,,-1265453411676839980,0.0,28.05279397614295,,,0,21,0.0,16431,211810926379788,14,29.11376190185547,147.62676692494145,0.006054768338799477,17,2260.207341935511,0.0030273841693997383,1.56109798E9,,,,0,,5,61.833412170410156,1.56109798E9
Nav,12,769,1,1,4,36,54,-20,71,0,0,1,0,-87,-114,-24
Nav,3,769,1,-1,4,36,5,40,-45,0,0,3,0,-88,106,120
Nav,4,769,1,-1,4,36,20,34,-13,0,0,20,0,-88,-117,-88
Raw,358613,14323000000,,,-1265453411676839858,0.0,27.01265840814282,,,0,5,0.0,16393,211825924358451,61,19.990575790405273,648.3352333279868,1.0504813537357185,20,8707.146375651484,3.4028234663852886E38,1.57542003E9,,,,0,,1,49.115211486816406,1.57542003E9
Raw,358614,14323000000,,,-1265453411676839858,0.0,27.01265840814282,,,0,13,0.0,16431,211825932566342,28,29.792451858520508,-36.3962598638468,0.005548771936446428,17,-509.5087238302571,0.002774385968223214,1.57542003E9,,,,0,,1,49.115211486816406,1.57542003E9
Raw,358614,14323000000,,,-1265453411676839858,0.0,27.01265840814282,,,0,15,0.0,16431,211825929266703,21,33.23273849487305,-355.32349781356606,0.003960580099374056,17,-4861.742505014812,0.001980290049687028,1.57542003E9,,,,0,,1,49.115211486816406,1.57542003E9
Raw,358614,14323000000,,,-1265453411676839858,0.0,27.01265840814282,,,0,24,0.0,16393,211825919109746,81,16.5697078704834,-575.0833773165105,1.2069672250915202,20,-7765.275992810915,3.4028234663852886E38,1.57542003E9,,,,0,,1,49.115211486816406,1.57542003E9
Raw,358614,14323000000,,,-1265453411676839858,0.0,27.01265840814282,,,0,28,0.0,16431,211825930133690,18,35.238853454589844,113.83896471294838,0.0031437871512025595,17,1687.2440662994934,0.0015718935756012797,1.57542003E9,,,,0,,1,49.115211486816406,1.57542003E9
Raw,358615,14323000000,,,-1265453411676839858,0.0,27.01265840814282,,,0,30,0.0,16431,211825926016017,14,38.26422119140625,505.45189059921177,0.0022191395983099937,17,6882.908476271092,0.0011095697991549969,1.57542003E9,,,,0,,1,49.115211486816406,1.57542003E9
Raw,358615,14323000000,,,-1265453411676839858,0.0,27.01265840814282,,,0,24,0.0,16392,211825919109859,1000000000,18.972444534301758,-576.9565491270041,2.99792458E8,20,-75673.54695132597,3.4028234663852886E38,1.17645005E9,,,,0,,1,11.69510269165039,1.17645005E9
Raw,358615,14323000000,,,-1265453411676839858,0.0,27.01265840814282,,,0,30,0.0,16393,211825926016008,11,29.004776000976562,505.4375550698678,0.008135860785841942,17,64285.74057008339,0.004067930392920971,1.17645005E9,,,,0,,1,11.69510269165039,1.17645005E9
Raw,358615,14323000000,,,-1265453411676839858,0.0,27.01265840814282,,,0,2,0.0,16392,49807932328429,1000000000,12.951072692871094,592.071368780827,2.99792458E8,22,3445.4364987747936,3.4028234663852886E38,1.59975002E9,,,,0,,3,61.30692672729492,1.59975002E9
Raw,358616,14323000000,,,-1265453411676839858,0.0,27.01265840814282,,,0,13,0.0,16393,946479,170,15.978853225708008,-170.8050488430208,1.232788546810827,20,-1364.4193800851358,3.4028234663852886E38,1.60087501E9,,,,0,,3,61.30692672729492,1.60087501E9
Raw,358616,14323000000,,,-1265453411676839858,0.0,27.01265840814282,,,0,12,0.0,32995,49807931766556,34,35.68999099731445,553.4826319973035,0.0029361792840063568,17,9118.842369900625,0.0014680896420031786,1.60143744E9,,,,0,,3,61.30692672729492,1.60143744E9
Raw,358616,14323000000,,,-1265453411676839858,0.0,27.01265840814282,,,0,3,0.0,16491,1935053742,46,32.12226867675781,-178.04669211288592,0.0041656047105789185,17,-1705.6386654434252,0.0020828023552894592,1.60481254E9,,,,0,,3,61.30692672729492,1.60481254E9
Raw,358616,14323000000,,,-1265453411676839858,0.0,27.01265840814282,,,0,4,0.0,16491,1924008673,64,28.147438049316406,-715.0885313936424,0.0065806289203464985,17,-7177.255054976,0.0032903144601732492,1.60537498E9,,,,0,,3,61.30692672729492,1.60537498E9
Raw,358617,14323000000,,,-1265453411676839858,0.0,27.01265840814282,,,0,10,0.0,16431,211811868636658,16,27.966629028320312,184.63443266850027,0.006909620948135853,17,3025.3780099549267,0.0034548104740679264,1.56109798E9,,,,0,,5,61.848121643066406,1.56109798E9
Raw,358617,14323000000,,,-1265453411676839858,0.0,27.01265840814282,,,0,21,0.0,16431,211811926379292,15,28.644733428955078,147.82333521611326,0.006390708032995462,17,2408.0306771516243,0.003195354016497731,1.56109798E9,,,,0,,5,61.848121643066406,1.56109798E9
Raw,359588,15323000000,,,-1265453411676839736,0.0,25.811427990127726,,,0,5,0.0,16393,211826924356316,65,19.32151985168457,648.5788547272118,1.0805675756639315,20,9356.525776992745,3.4028234663852886E38,1.57542003E9,,,,0,,1,49.160926818847656,1.57542003E9
Raw,359589,15323000000,,,-1265453411676839736,0.0,25.811427990127726,,,0,13,0.0,16431,211826932566465,27,30.174774169921875,-36.16829705504648,0.005309831351041794,17,-545.6770208853036,0.002654915675520897,1.57542003E9,,,,0,,1,49.160926818847656,1.57542003E9
Raw,359589,15323000000,,,-1265453411676839736,0.0,25.811427990127726,,,0,15,0.0,16431,211826929267872,22,32.53752899169922,-355.07792139998855,0.004290611948817968,17,-5216.820426414801,0.002145305974408984,1.57542003E9,,,,0,,1,49.160926818847656,1.57542003E9
Raw,359589,15323000000,,,-1265453411676839736,0.0,25.811427990127726,,,0,24,0.0,16393,211826919111691,83,16.254169464111328,-575.2242060268627,1.2211569765802475,20,-8340.97501443742,3.4028234663852886E38,1.57542003E9,,,,0,,1,49.160926818847656,1.57542003E9
Raw,359589,15323000000,,,-1265453411676839736,0.0,25.811427990127726,,,0,28,0.0,16431,211826930133310,18,34.996849060058594,114.08806491996211,0.003232609946280718,17,1801.3321312194555,0.001616304973140359,1.57542003E9,,,,0,,1,49.160926818847656,1.57542003E9
Raw,359589,15323000000,,,-1265453411676839736,0.0,25.811427990127726,,,0,30,0.0,16431,211826926014339,14,38.097660064697266,505.61051683178994,0.002262104768306017,17,7388.518993102882,0.0011310523841530085,1.57542003E9,,,,0,,1,49.160926818847656,1.57542003E9
Raw,359590,15323000000,,,-1265453411676839736,0.0,25.811427990127726,,,0,24,0.0,16393,211826919111759,53,21.23971176147461,-576.2253441047637,0.9969628438423923,20,-76249.31995710701,3.4028234663852886E38,1.17645005E9,,,,0,,1,9.172757148742676,1.17645005E9
Raw,359590,15323000000,,,-1265453411676839736,0.0,25.811427990127726,,,0,30,0.0,16393,211826926014322,11,28.63215446472168,505.6323559461089,0.008492480963468552,17,64791.3729260295,0.004246240481734276,1.17645005E9,,,,0,,1,9.172757148742676,1.17645005E9
Raw,359590,15323000000,,,-1265453411676839736,0.0,25.811427990127726,,,0,2,0.0,16393,326278,372,14.250179290771484,591.9498989057797,1.3100537420172298,20,4039.552951041218,3.4028234663852886E38,1.59975002E9,,,,0,,3,61.30692672729492,1.59975002E9
Raw,359590,15323000000,,,-1265453411676839736,0.0,25.811427990127726,,,0,13,0.0,16393,947017,142,18.25449562072754,-170.8160915589342,1.1304555716973015,20,-1534.7704344708827,3.4028234663852886E38,1.60087501E9,,,,0,,3,61.30692672729492,1.60087501E9
Raw,359590,15323000000,,,-1265453411676839736,0.0,25.811427990127726,,,0,12,0.0,32995,49808931764720,36,35.27155685424805,553.680415481922,0.0030810891184955835,17,9672.522785382547,0.0015405445592477918,1.60143744E9,,,,0,,3,61.30692672729492,1.60143744E9
Raw,359591,15323000000,,,-1265453411676839736,0.0,25.811427990127726,,,0,3,0.0,16491,935054340,46,32.13624572753906,-177.78123046659948,0.0041589075699448586,17,-1883.4198959100247,0.0020794537849724293,1.60481254E9,,,,0,,3,61.30692672729492,1.60481254E9
Raw,359591,15323000000,,,-1265453411676839736,0.0,25.811427990127726,,,0,4,0.0,16491,924011018,66,27.613262176513672,-714.8623195352238,0.006998036522418261,17,-7892.117374511224,0.0034990182612091303,1.60537498E9,,,,0,,3,61.30692672729492,1.60537498E9
Raw,359591,15323000000,,,-1265453411676839736,0.0,25.811427990127726,,,0,10,0.0,16431,211812868636046,16,27.575239181518555,184.74854768113346,0.007228091359138489,17,3210.12655763606,0.0036140456795692444,1.56109798E9,,,,0,,5,61.80392074584961,1.56109798E9
Raw,359591,15323000000,,,-1265453411676839736,0.0,25.811427990127726,,,0,21,0.0,16431,211812926378799,14,29.03522300720215,148.06789959760724,0.0061097657307982445,17,2556.0985767492316,0.0030548828653991222,1.56109798E9,,,,0,,5,61.80392074584961,1.56109798E9
Nav,12,769,1,1,5,40,42,0,0,0,4,28,0,2,-73,-24
Nav,3,769,1,-1,5,40,42,0,0,0,2,28,0,2,-93,-40
Nav,4,769,1,-1,5,40,42,0,0,0,4,28,0,2,-73,-24
Raw,360601,16323000000,,,-1265453411676839616,0.0,24.951462828867644,,,0,5,0.0,16393,211827924354206,87,15.664576530456543,648.0687085179784,1.2450158943575769,20,10005.249514041747,3.4028234663852886E38,1.57542003E9,,,,0,,1,48.692569732666016,1.57542003E9
Raw,360601,16323000000,,,-1265453411676839616,0.0,24.951462828867644,,,0,13,0.0,16431,211827932566580,25,31.09224510192871,-36.20521285452264,0.004777571652084589,17,-581.8822337398262,0.0023887858260422945,1.57542003E9,,,,0,,1,48.692569732666016,1.57542003E9
Raw,360601,16323000000,,,-1265453411676839616,0.0,24.951462828867644,,,0,15,0.0,16431,211827929269066,21,32.92383575439453,-355.1334248968942,0.0041039674542844296,17,-5571.953851311695,0.0020519837271422148,1.57542003E9,,,,0,,1,48.692569732666016,1.57542003E9
Raw,360602,16323000000,,,-1265453411676839616,0.0,24.951462828867644,,,0,24,0.0,16393,211827919113607,85,15.905241012573242,-575.5552148446122,1.2368483531749153,20,-8917.869913269255,3.4028234663852886E38,1.57542003E9,,,,1,,1,48.692569732666016,1.57542003E9
Raw,360602,16323000000,,,-1265453411676839616,0.0,24.951462828867644,,,0,28,0.0,16431,211827930132936,17,35.558006286621094,114.08142419526006,0.0030303681269288063,17,1915.4135554147156,0.0015151840634644032,1.57542003E9,,,,0,,1,48.692569732666016,1.57542003E9
Raw,360602,16323000000,,,-1265453411676839616,0.0,24.951462828867644,,,0,30,0.0,16431,211827926012656,14,37.830482482910156,505.5379945658151,0.002332768635824323,17,7894.056987668697,0.0011663843179121614,1.57542003E9,,,,0,,1,48.692569732666016,1.57542003E9
Raw,360602,16323000000,,,-1265453411676839616,0.0,24.951462828867644,,,0,24,0.0,16393,211827919113683,43,22.516788482666016,-575.8877232904488,0.9395345702744358,20,-76825.28881366877,3.4028234663852886E38,1.17645005E9,,,,0,,1,20.027101516723633,1.17645005E9
Raw,360603,16323000000,,,-1265453411676839616,0.0,24.951462828867644,,,0,30,0.0,16393,211827926012632,11,28.393556594848633,505.51872108595126,0.008728999644517899,17,65296.89164711545,0.004364499822258949,1.17645005E9,,,,0,,1,20.027101516723633,1.17645005E9
Raw,360603,16323000000,,,-1265453411676839616,0.0,24.951462828867644,,,0,2,0.0,16393,324409,183,15.055191040039062,593.5542964641345,1.2738528478061735,20,4632.259704181699,3.4028234663852886E38,1.59975002E9,,,,0,,3,63.903690338134766,1.59975002E9
Raw,360603,16323000000,,,-1265453411676839616,0.0,24.951462828867644,,,0,13,0.0,16393,947701,142,18.213417053222656,-169.82091791092466,1.1323029473485144,20,-1704.9983680187815,3.4028234663852886E38,1.60087501E9,,,,0,,3,63.903690338134766,1.60087501E9
Raw,360603,16323000000,,,-1265453411676839616,0.0,24.951462828867644,,,0,12,0.0,32995,49809931762864,34,35.7777214050293,553.6309605070746,0.0029066719580441713,17,10226.153745889622,0.0014533359790220857,1.60143744E9,,,,0,,3,63.903690338134766,1.60143744E9
Raw,360604,16323000000,,,-1265453411676839616,0.0,24.951462828867644,,,0,3,0.0,16491,1935054937,43,32.91093826293945,-177.74615652765647,0.0038040357176214457,17,-2061.166052437681,0.0019020178588107228,1.60481254E9,,,,0,,3,63.903690338134766,1.60481254E9
Raw,360604,16323000000,,,-1265453411676839616,0.0,24.951462828867644,,,0,4,0.0,16491,1924013420,67,27.495811462402344,-714.9778579365075,0.0070933080278337,17,-8607.095232447731,0.00354665401391685,1.60537498E9,,,,0,,3,63.903690338134766,1.60537498E9
Raw,360604,16323000000,,,-1265453411676839616,0.0,24.951462828867644,,,0,10,0.0,16431,211813868635429,16,27.8671932220459,184.65356203775582,0.006989175919443369,17,3394.780119673816,0.0034945879597216845,1.56109798E9,,,,0,,5,61.96491241455078,1.56109798E9
Raw,360604,16323000000,,,-1265453411676839616,0.0,24.951462828867644,,,0,21,0.0,16431,211813926378302,15,28.502458572387695,148.03861561808026,0.006496249232441187,17,2704.137192367312,0.0032481246162205935,1.56109798E9,,,,0,,5,61.96491241455078,1.56109798E9
Raw,361600,17323000000,,,-1265453411676839495,0.0,24.394665889869206,,,0,5,0.0,16393,211828924352008,78,16.973529815673828,648.305649755725,1.1861533617891507,20,10653.436337724175,3.4028234663852886E38,1.57542003E9,,,,0,,1,49.046180725097656,1.57542003E9
Raw,361600,17323000000,,,-1265453411676839495,0.0,24.394665889869206,,,0,13,0.0,16431,211828932566704,24,31.557228088378906,-36.42702781087769,0.004528537858277559,17,-618.3092615507039,0.0022642689291387796,1.57542003E9,,,,0,,1,49.046180725097656,1.57542003E9
Raw,361600,17323000000,,,-1265453411676839495,0.0,24.394665889869206,,,0,15,0.0,16431,211828929270235,23,31.931926727294922,-355.37643863831096,0.004600439686328173,17,-5927.330289950006,0.0023002198431640863,1.57542003E9,,,,0,,1,49.046180725097656,1.57542003E9
Raw,361600,17323000000,,,-1265453411676839495,0.0,24.394665889869206,,,0,24,0.0,16393,211828919115514,86,15.769107818603516,-576.1864219394147,1.2429705475624209,20,-9494.298029190806,3.4028234663852886E38,1.57542003E9,,,,1,,1,49.046180725097656,1.57542003E9
Raw,361601,17323000000,,,-1265453411676839495,0.0,24.394665889869206,,,0,28,0.0,16431,211828930132554,17,35.45466613769531,113.88407511463788,0.003066637320443988,17,2029.2976305293535,0.001533318660221994,1.57542003E9,,,,0,,1,49.046180725097656,1.57542003E9
Raw,361601,17323000000,,,-1265453411676839495,0.0,24.394665889869206,,,0,30,0.0,16431,211828926010967,14,37.771644592285156,505.26910423598747,0.002348623936995864,17,8399.326091904684,0.001174311968497932,1.57542003E9,,,,0,,1,49.046180725097656,1.57542003E9
Raw,361601,17323000000,,,-1265453411676839495,0.0,24.394665889869206,,,0,24,0.0,16393,211828919115594,44,22.25839614868164,-576.3115727197664,0.9511544912278835,20,-77401.5243814698,3.4028234663852886E38,1.17645005E9,,,,0,,1,10.320786476135254,1.17645005E9
Raw,361601,17323000000,,,-1265453411676839495,0.0,24.394665889869206,,,0,30,0.0,16393,211828926010950,11,28.401521682739258,505.2669747770706,0.008720998652279377,17,65802.15862189252,0.0043604993261396885,1.17645005E9,,,,0,,1,10.320786476135254,1.17645005E9
Raw,361601,17323000000,,,-1265453411676839495,0.0,24.394665889869206,,,0,2,0.0,16393,322565,181,15.21006965637207,593.0762559289456,1.266887911427303,20,5225.477529625929,3.4028234663852886E38,1.59975002E9,,,,0,,3,61.40491485595703,1.59975002E9
Raw,361601,17323000000,,,-1265453411676839495,0.0,24.394665889869206,,,0,13,0.0,16393,948239,149,17.59709358215332,-170.3672596889853,1.1600183749621573,20,-1875.0325971612388,3.4028234663852886E38,1.60087501E9,,,,0,,3,61.40491485595703,1.60087501E9
Raw,361602,17323000000,,,-1265453411676839495,0.0,24.394665889869206,,,0,12,0.0,32995,49810931761010,33,36.096527099609375,553.4018042829721,0.00280191982164979,17,10779.555550172594,0.001400959910824895,1.60143744E9,,,,0,,3,61.40491485595703,1.60143744E9
Raw,361602,17323000000,,,-1265453411676839495,0.0,24.394665889869206,,,0,3,0.0,16491,935055547,43,32.95112228393555,-177.923746523471,0.003786478191614151,17,-2239.089798961152,0.0018932390958070755,1.60481254E9,,,,0,,3,61.40491485595703,1.60481254E9
Raw,361602,17323000000,,,-1265453411676839495,0.0,24.394665889869206,,,0,4,0.0,16491,924015886,73,26.449840545654297,-715.2281554416495,0.008001056499779224,17,-9322.32338788938,0.004000528249889612,1.60537498E9,,,,0,,3,61.40491485595703,1.60537498E9
Raw,361602,17323000000,,,-1265453411676839495,0.0,24.394665889869206,,,0,10,0.0,16431,211814868634813,16,27.57990264892578,184.35896553393874,0.007224211003631353,17,3579.1390852077548,0.0036121055018156767,1.56109798E9,,,,0,,5,62.08014678955078,1.56109798E9
Raw,361602,17323000000,,,-1265453411676839495,0.0,24.394665889869206,,,0,21,0.0,16431,211814926377814,15,28.870929718017578,147.84231433502737,0.006226429715752601,17,2851.979506702339,0.003113214857876301,1.56109798E9,,,,0,,5,62.08014678955078,1.56109798E9
Raw,361602,17323000000,,,-1265453411676839495,0.0,24.394665889869206,,,0,27,0.0,19498,211828921845699,27,30.94991683959961,147.59334519921515,299.79279806766203,22,156.1069114333515,3.4028234663852886E38,1.57542003E9,,,,1,,6,49.046180725097656,1.57542003E9
Nav,12,769,1,1,6,53,12,31,72,44,32,113,108,11,98,-104
Nav,3,769,1,-1,6,53,12,29,72,44,32,113,108,11,99,112
Nav,4,769,1,-1,6,53,12,31,72,44,32,113,108,11,98,-104
Raw,362650,18323000000,,,-1265453411676839373,0.0,24.18749894979348,,,0,5,0.0,16393,211829924349824,76,17.31839942932129,649.1779561479698,1.170644512725314,20,11301.563324163768,3.4028234663852886E38,1.57542003E9,,,,0,,1,48.59579086303711,1.57542003E9
Raw,362650,18323000000,,,-1265453411676839373,0.0,24.18749894979348,,,0,13,0.0,16431,211829932566828,26,30.4335880279541,-36.50050094888729,0.005153948441147804,17,-654.8097624995912,0.002576974220573902,1.57542003E9,,,,0,,1,48.59579086303711,1.57542003E9
Raw,362650,18323000000,,,-1265453411676839373,0.0,24.18749894979348,,,0,15,0.0,16431,211829929271431,21,33.30571365356445,-355.47359154757123,0.0039274441078305244,17,-6282.803881497577,0.0019637220539152622,1.57542003E9,,,,0,,1,48.59579086303711,1.57542003E9
Raw,362650,18323000000,,,-1265453411676839373,0.0,24.18749894979348,,,0,24,0.0,16393,211829919117366,92,15.018338203430176,-576.4046178260737,1.2767320165747762,20,-10071.056932951407,3.4028234663852886E38,1.57542003E9,,,,1,,1,48.59579086303711,1.57542003E9
Raw,362650,18323000000,,,-1265453411676839373,0.0,24.18749894979348,,,0,28,0.0,16431,211829930132173,17,35.32037353515625,113.83176199464039,0.0031144190579652786,17,2143.129392523994,0.0015572095289826393,1.57542003E9,,,,0,,1,48.59579086303711,1.57542003E9
Raw,362650,18323000000,,,-1265453411676839373,0.0,24.18749894979348,,,0,30,0.0,16431,211829926009285,14,38.18061828613281,505.1327519548249,0.002240602392703295,17,8904.45884385951,0.0011203011963516474,1.57542003E9,,,,0,,1,48.59579086303711,1.57542003E9
Raw,362651,18323000000,,,-1265453411676839373,0.0,24.18749894979348,,,0,24,0.0,16393,211829919117519,53,21.15044403076172,-576.4295661842484,1.000978183251486,20,-77977.92030618861,3.4028234663852886E38,1.17645005E9,,,,0,,1,10.88136100769043,1.17645005E9
Raw,362651,18323000000,,,-1265453411676839373,0.0,24.18749894979348,,,0,30,0.0,16393,211829926009261,10,28.927959442138672,505.1366282389354,0.008208131417632103,17,66307.29525013146,0.0041040657088160515,1.17645005E9,,,,0,,1,10.88136100769043,1.17645005E9
Raw,362651,18323000000,,,-1265453411676839373,0.0,24.18749894979348,,,0,2,0.0,16393,320630,185,14.965291976928711,593.2241737902546,1.2778948141344255,20,5818.630670554471,3.4028234663852886E38,1.59975002E9,,,,0,,3,61.44657516479492,1.59975002E9
Raw,362651,18323000000,,,-1265453411676839373,0.0,24.18749894979348,,,0,13,0.0,16393,948809,151,17.467830657958984,-170.45019934693357,1.1658312976836376,20,-2045.4257640296464,3.4028234663852886E38,1.60087501E9,,,,0,,3,61.44657516479492,1.60087501E9
Raw,362651,18323000000,,,-1265453411676839373,0.0,24.18749894979348,,,0,12,0.0,32995,49811931759179,33,36.812381744384766,553.3067781887185,0.0025802571326494217,17,11332.862328361312,0.0012901285663247108,1.60143744E9,,,,0,,3,61.44657516479492,1.60143744E9
Raw,362651,18323000000,,,-1265453411676839373,0.0,24.18749894979348,,,0,3,0.0,16491,1935056107,46,32.15495681762695,-177.94114956662543,0.004149958025664091,17,-2417.0309485277776,0.0020749790128320456,1.60481254E9,,,,0,,3,61.44657516479492,1.60481254E9
Raw,362652,18323000000,,,-1265453411676839373,0.0,24.18749894979348,,,0,4,0.0,16491,1924018244,72,26.533185958862305,-715.3740511370888,0.007924648933112621,17,-10037.69743902647,0.003962324466556311,1.60537498E9,,,,0,,3,61.44657516479492,1.60537498E9
Raw,362652,18323000000,,,-1265453411676839373,0.0,24.18749894979348,,,0,10,0.0,16431,211815868634211,16,27.69861602783203,184.20894676897296,0.007126147858798504,17,3763.3480319767277,0.003563073929399252,1.56109798E9,,,,0,,5,61.99386215209961,1.56109798E9
Raw,362652,18323000000,,,-1265453411676839373,0.0,24.18749894979348,,,0,21,0.0,16431,211815926377330,15,28.243146896362305,147.79131463245628,0.006693115923553705,17,2999.7708213347955,0.0033465579617768526,1.56109798E9,,,,0,,5,61.99386215209961,1.56109798E9
Raw,362652,18323000000,,,-1265453411676839373,0.0,24.18749894979348,,,0,27,0.0,19498,211829921845200,25,31.65683364868164,147.59334519921515,299.79279806766203,20,313.2521114501482,3.4028234663852886E38,1.57542003E9,,,,0,,6,48.59579086303711,1.57542003E9
Raw,362652,18323000000,,,-1265453411676839373,0.0,24.18749894979348,,,0,27,0.0,16392,211829921845215,1000000000,7.0,149.47571927296997,2.99792458E8,22,6848.276009724536,3.4028234663852886E38,1.17645005E9,,,,0,,6,10.88136100769043,1.17645005E9
Nav,13,257,1,11,5,34,-64,44,1,17,61,45,-41,18,-32,112,-76,19,-70,-3,118,63,70,0,0,40,65,-100,105,45,-83,74,107,20,46,-90,24,20,113,-5,-101,52,0,27,103
Nav,15,257,1,11,5,34,-64,44,1,17,61,45,-41,18,-32,111,-3,24,-6,-2,108,63,71,64,25,40,65,-99,24,45,-85,84,5,20,47,8,-80,20,76,126,-29,52,0,28,-96
Nav,28,257,1,11,5,34,-64,44,1,17,61,45,-41,18,-32,112,-76,19,-70,-3,118,63,70,0,0,40,65,-100,105,45,-83,74,107,20,46,-90,24,20,113,-5,-101,52,0,27,103
Nav,30,257,1,11,5,34,-64,44,1,17,61,45,-41,18,-32,112,-76,19,-70,-3,118,63,70,0,0,40,65,-100,105,45,-83,74,107,20,46,-90,24,20,113,-5,-101,52,0,27,103
Raw,363622,19323000000,,,-1265453411676839253,0.0,23.48561453198671,,,0,5,0.0,16393,211830924347699,85,15.951523780822754,648.1501655890679,1.2321110248528404,20,11951.179915579482,3.4028234663852886E38,1.57542003E9,,,,0,,1,48.76445388793945,1.57542003E9
Raw,363622,19323000000,,,-1265453411676839253,0.0,23.48561453198671,,,0,13,0.0,16431,211830932566948,25,30.919925689697266,-36.26275906087699,0.0048732999712228775,17,-691.0725215604682,0.0024366499856114388,1.57542003E9,,,,0,,1,48.76445388793945,1.57542003E9
Raw,363622,19323000000,,,-1265453411676839253,0.0,23.48561453198671,,,0,15,0.0,16431,211830929272612,22,32.78973388671875,-355.22080120532155,0.004167821258306503,17,-6638.024682702899,0.0020839106291532516,1.57542003E9,,,,0,,1,48.76445388793945,1.57542003E9
Raw,363623,19323000000,,,-1265453411676839253,0.0,23.48561453198671,,,0,24,0.0,16393,211830919119321,87,15.729537010192871,-576.0636569310195,1.244750557108163,20,-10646.977503272254,3.4028234663852886E38,1.57542003E9,,,,1,,1,48.76445388793945,1.57542003E9
Raw,363623,19323000000,,,-1265453411676839253,0.0,23.48561453198671,,,0,28,0.0,16431,211830930131794,18,34.6563835144043,114.10498969012271,0.0033618358429521322,17,2257.2343822141165,0.0016809179214760661,1.57542003E9,,,,0,,1,48.76445388793945,1.57542003E9
Raw,363623,19323000000,,,-1265453411676839253,0.0,23.48561453198671,,,0,30,0.0,16431,211830926007595,13,38.9342155456543,505.3257952698623,0.0020543993450701237,17,9409.784639129371,0.0010271996725350618,1.57542003E9,,,,0,,1,48.76445388793945,1.57542003E9
Raw,363623,19323000000,,,-1265453411676839253,0.0,23.48561453198671,,,0,24,0.0,16393,211830919119442,58,20.707191467285156,-576.1883825576806,0.021148651838302612,17,-78554.10868874629,0.010574325919151306,1.17645005E9,,,,0,,1,20.107900619506836,1.17645005E9
Raw,363623,19323000000,,,-1265453411676839253,0.0,23.48561453198671,,,0,30,0.0,16393,211830926007578,9,29.159343719482422,505.32215909159277,0.007992362603545189,17,66812.61740922305,0.0039961813017725945,1.17645005E9,,,,0,,1,20.107900619506836,1.17645005E9
Raw,363623,19323000000,,,-1265453411676839253,0.0,23.48561453198671,,,0,2,0.0,16393,318702,197,14.188749313354492,593.540049997308,1.3128148203993648,20,6411.565938931024,3.4028234663852886E38,1.59975002E9,,,,0,,3,61.51556396484375,1.59975002E9
Raw,363624,19323000000,,,-1265453411676839253,0.0,23.48561453198671,,,0,13,0.0,16393,949225,164,16.412080764770508,-168.8496360649376,1.2133073608123377,20,-2215.5580245180804,3.4028234663852886E38,1.60087501E9,,,,0,,3,61.51556396484375,1.60087501E9
Raw,363624,19323000000,,,-1265453411676839253,0.0,23.48561453198671,,,0,12,0.0,32995,49812931757347,33,36.895938873291016,553.5174288326525,0.0025555547326803207,17,11886.379757193965,0.0012777773663401604,1.60143744E9,,,,0,,3,61.51556396484375,1.60143744E9
Raw,363624,19323000000,,,-1265453411676839253,0.0,23.48561453198671,,,0,3,0.0,16491,935056722,46,32.11122512817383,-177.64172394894334,0.004170904867351055,17,-2594.672672476721,0.0020854524336755276,1.60481254E9,,,,0,,3,61.51556396484375,1.60481254E9
Raw,363624,19323000000,,,-1265453411676839253,0.0,23.48561453198671,,,0,4,0.0,16491,924020617,66,27.64202308654785,-715.189264740995,0.006974902469664812,17,-10752.886703767464,0.003487451234832406,1.60537498E9,,,,0,,3,61.51556396484375,1.60537498E9
Raw,363624,19323000000,,,-1265453411676839253,0.0,23.48561453198671,,,0,10,0.0,16431,211816868633583,16,28.071022033691406,184.3710744157711,0.006827072706073523,17,3947.719106392499,0.0034135363530367613,1.56109798E9,,,,0,,5,62.02272033691406,1.56109798E9
Raw,363624,19323000000,,,-1265453411676839253,0.0,23.48561453198671,,,0,21,0.0,16431,211816926376826,16,28.07476806640625,148.03435008230235,0.006824128795415163,17,3147.805171417098,0.0034120643977075815,1.56109798E9,,,,0,,5,62.02272033691406,1.56109798E9
Raw,363625,19323000000,,,-1265453411676839253,0.0,23.48561453198671,,,0,27,0.0,19498,211830921844698,24,32.287445068359375,147.59334519921515,299.79279806766203,20,460.46041374993456,3.4028234663852886E38,1.57542003E9,,,,0,,6,48.76445388793945,1.57542003E9
Raw,363625,19323000000,,,-1265453411676839253,0.0,23.48561453198671,,,0,27,0.0,18475,211830921844636,34,25.806060791015625,148.58991622794213,0.7921109045850194,20,6993.50894409498,3.4028234663852886E38,1.17645005E9,,,,0,,6,20.107900619506836,1.17645005E9
Nav,12,769,1,1,7,56,31,107,23,71,116,-64,77,28,17,-96
Nav,3,769,1,-1,7,56,31,107,23,71,116,-64,77,28,17,-96
Nav,4,769,1,-1,7,56,31,107,23,71,116,-64,77,28,17,-96